PO_Name,County,State,PM_Salary,Latitude,Longitude
Arizona,Yuma,AZ,360,32.7253249,-114.624397
Ehrenburg,La Paz,AZ,140,33.6041914,-114.5252322
Florence,Pinal,AZ,12,33.0314508,-111.3873431
Fort Bowie,Cochise,AZ,12,32.149804,-109.4525624
Grant,Pinal,AZ,12,31.4031528,-110.91592
Hardyville,Mohave,AZ,180,35.0450009,-114.6216325
Kirkland Valley,Yavapai,AZ,12,34.4175,-112.712222
La Paz,La Paz,AZ,200,33.6791899,-114.426342
Maricopa,Pinal,AZ,220,33.0581063,-112.0476423
McDowell,Maricopa,AZ,12,33.6367105,-111.6745826
Mohave City,Mohave,AZ,80,35.0444453,-114.6230214
Overton,Maricopa,AZ,12,33.828611,-111.954722
Parker,La Paz,AZ,12,34.1500162,-114.2891177
Phoenix,Maricopa,AZ,12,33.4483771,-112.0740373
Prescott,Yavapai,AZ,540,34.5397095,-112.4691701
Providence Wells,Pima,AZ,12,32.1314666,-111.2778803
Sacaton,Pinal,AZ,12,33.0813926,-111.7442899
Saint Joseph,Navajo,AZ,44,34.9558574,-110.334014
Sanford,Pinal,AZ,12,33.0128395,-111.4420665
Skull Valley,Yavapai,AZ,12,34.501896,-112.6871074
Tubac,Santa Cruz,AZ,12,31.61259,-111.0459238
Tucson,Pima,AZ,620,32.2217429,-110.926479
Wickenburg,Maricopa,AZ,200,33.9610766,-112.7729381
Wilson,Yavapai,AZ,12,33.4543463,-112.0179746
Alameda,Alameda,CA,99,37.7652065,-122.2416355
Alvarado,Alameda,CA,70,37.5952005,-122.0768144
Brooklyn,Alameda,CA,280,37.788539,-122.249414
Centerville,Alameda,CA,200,37.5482697,-121.9885719
Decoto,Alameda,CA,12,37.5958333,-122.0191667
Dougherty's Station,Alameda,CA,45,37.7021521,-121.9357918
Haywards,Alameda,CA,80,37.6688205,-122.0807964
Livermore,Alameda,CA,12,37.6818745,-121.7680088
Midway,Alameda,CA,12,37.7146518,-121.5580031
Mission San Jose,Alameda,CA,30,37.5482697,-121.9885719
Mount Eden,Alameda,CA,100,37.6248959,-122.08967
Oakland,Alameda,CA,2100,37.8043722,-122.2708026
Pleasanton,Alameda,CA,94,37.6624312,-121.8746789
San Leandro,Alameda,CA,380,37.7181536,-122.1431661
San Lorenzo,Alameda,CA,140,37.6877406,-122.1217777
Sunolglen,Alameda,CA,12,37.5938226,-121.8880127
Warm Springs,Alameda,CA,13,37.5482697,-121.9885719
Washington Corners,Alameda,CA,12,37.532159,-121.9616266
Bullionae,Alpine,CA,55,38.6604619,-119.7262864
Markleeville,Alpine,CA,46,38.6949057,-119.7801768
Monitor,Alpine,CA,160,38.6651843,-119.6960075
Woodford's,Alpine,CA,35,38.76615,-119.80821
Amador City,Amador,CA,76,38.421022,-120.8249363
Buena Vista,Amador,CA,12,38.2943599,-120.9132726
Drytown,Amador,CA,100,38.4410213,-120.8543816
Forest Home,Amador,CA,80,38.4649096,-120.9641076
Ione,Amador,CA,230,38.3916667,-120.9505556
Jackson,Amador,CA,700,38.3532466,-120.7760462
Lancha Plana,Amador,CA,25,38.22464,-120.9018833
Oleta,Amador,CA,120,38.5037966,-120.7554891
Pine Grove,Amador,CA,53,38.4124112,-120.6543749
Plymouth,Amador,CA,12,38.4818531,-120.844659
Silver Mountain,Alpine,CA,130,38.6051849,-119.7693438
Sutter Creek,Amador,CA,440,38.3929675,-120.8024357
Volcano,Amador,CA,130,38.4429658,-120.6307628
Bangor,Butte,CA,26,39.3885002,-121.4052424
Bidwell's Bar,Butte,CA,34,39.5565531,-121.4413559
Bigg's Station,Butte,CA,12,39.4123876,-121.7127513
Brush Creek,Butte,CA,35,39.6904417,-121.3391309
Central House,Butte,CA,29,39.3557221,-121.6052476
Cherokee,Butte,CA,56,40.104613,-120.9391224
Chico,Butte,CA,730,39.7276612,-121.8385888
Clipper Mills,Butte,CA,71,39.5287782,-121.1699591
Forbestown,Butte,CA,82,39.51711,-121.267184
Gridley,Butte,CA,12,39.3637773,-121.6935833
Honcut,Butte,CA,12,39.3290561,-121.5338564
Honcut,Butte,CA,12,39.3290561,-121.5338564
Inskip,Butte,CA,5,39.9898823,-121.5410842
Lovelock,Butte,CA,12,39.8912719,-121.5777512
Magalia,Butte,CA,74,39.8437722,-121.5888621
Nord,Butte,CA,12,39.7807155,-121.9552579
Oroville,Butte,CA,1000,39.5137752,-121.556359
Pentz,Butte,CA,34,39.6551627,-121.5838605
Rio Seco,Butte,CA,12,39.5887743,-121.6785852
Yankee Hill,Butte,CA,20,39.721551,-121.5419152
Angel's Camp,Calaveras,CA,160,38.0696443,-120.5410346
Big Trees,Calaveras,CA,12,38.2774169,-120.3104735
Camanche,Calaveras,CA,47,38.2132514,-120.9352175
Campo Seco,Calaveras,CA,96,38.2279734,-120.8532709
Chili,Calaveras,CA,25,,
Copperoplis,Calaveras,CA,330,37.9366667,-120.5466667
Fourth Crossing,Calaveras,CA,20,38.1313094,-120.6346511
Gwin Mine,Calaveras,CA,12,38.2757495,-120.7579905
Jenny Lind,Calaveras,CA,80,38.0949216,-120.8699371
Milton,Calaveras,CA,12,38.0318678,-120.8521583
Mokelumne Hill,Calaveras,CA,530,38.3004709,-120.7063219
Mountain Ranch,Calaveras,CA,24,38.2282509,-120.5407599
Murphy,Calaveras,CA,230,38.1374202,-120.4596437
Railroad Flat,Calaveras,CA,69,38.3432471,-120.5121479
San Andreas,Calaveras,CA,370,38.1960298,-120.6804872
Telegraph City,Calaveras,CA,61,37.93437,-120.7399315
Vallicita,Calaveras,CA,65,38.0901992,-120.4735322
West Point,Calaveras,CA,94,38.3990786,-120.527426
Canaan,Colusa,CA,12,39.39859344,-122.2472165
Coast Range,Colusa,CA,14,39.8004,-122.427
Colusa,Colusa,CA,700,39.2143343,-122.0094175
Grand Island,Colusa,CA,50,39.0696163,-121.8969137
Jacinto,Glenn,CA,12,39.5809946,-122.0066438
Kanawha,Colusa,CA,12,39.524326,-122.2497061
Newville,Glenn,CA,53,39.790989,-122.5283302
Princeton,Colusa,CA,64,39.4018304,-122.009975
Saint John,Glenn,CA,18,39.7132156,-122.0047017
Spring Valley,Colusa,CA,21,39.0998928,-122.2194191
Sycamore,Colusa,CA,12,39.1337814,-121.9419153
Alamo,Contra Costa,CA,33,37.8671473,-122.0302396
Antioch,Contra Costa,CA,560,37.9968661,-121.8094002
Black Diamond,Contra Costa,CA,12,38.0288095,-121.8844028
Clayton,Contra Costa,CA,40,37.9410341,-121.9357925
Danville,Contra Costa,CA,110,37.8215929,-121.9999606
Lafayette,Contra Costa,CA,20,37.8857582,-122.1180201
Martinez,Contra Costa,CA,250,38.0193657,-122.1341321
Pacheco,Contra Costa,CA,320,37.9818666,-122.0724634
San Pablo,Contra Costa,CA,95,37.9610347,-122.3458041
Somersville,Contra Costa,CA,110,37.9568671,-121.8644016
Walnut Creek,Contra Costa,CA,71,37.9080556,-122.0616667
Crescent City,Del Norte,CA,200,41.7559481,-124.2017474
Smith River,Del Norte,CA,12,41.9270567,-124.1523054
Clarksville,El Dorado,CA,40,38.6549043,-121.0524439
Coloma,El Dorado,CA,100,38.800457,-120.8904937
Diamond Spring,El Dorado,CA,93,38.6946259,-120.8149355
El Dorado,El Dorado,CA,87,38.6826817,-120.8477146
Fair Play,El Dorado,CA,12,38.5868507,-120.6582633
Garden Valley,El Dorado,CA,25,38.8587897,-120.8493804
Georgetown,El Dorado,CA,350,38.9068446,-120.8363238
Granite Hill,El Dorado,CA,13,38.7449025,-120.854937
Green Valley,El Dorado,CA,57,38.6971254,-121.008554
Greenwood,El Dorado,CA,22,38.8965664,-120.9127166
Grizzly Flats,El Dorado,CA,56,38.6360169,-120.5271473
Indian Diggins,El Dorado,CA,12,38.58074,-120.5768715
Kelsey,El Dorado,CA,23,38.8174015,-120.8243796
Lake Valley,El Dorado,CA,15,38.9299079,-120.0046264
Latrobe,El Dorado,CA,85,38.5582402,-120.9813306
Nashville,El Dorado,CA,12,38.5787952,-120.8452145
Newtown,El Dorado,CA,33,38.7043483,-120.6790971
Pilot Hill,El Dorado,CA,49,38.8349001,-121.0143878
Placerville,El Dorado,CA,1200,38.7296252,-120.798546
Pleasant Valley,El Dorado,CA,48,38.6832377,-120.6643743
Salmon Falls,El Dorado,CA,24,38.7579571,-121.0582776
Shingle,El Dorado,CA,150,38.6604599,-120.936329
Slippery Ford,El Dorado,CA,20,38.774722,-120.296944
Big Dry Creek,Fresno,CA,12,36.871,-119.618
Firebaugh,Fresno,CA,20,36.8588376,-120.4560072
Fort Miller,Fresno,CA,170,36.7855045,-119.7951458
Kingriver,Fresno,CA,12,36.6007839,-119.4595701
Laton,Fresno,CA,67,36.4343946,-119.6859657
New Idria,San Benito,CA,88,36.4144008,-120.6746157
Panoche,San Benito,CA,12,36.5968992,-120.8335144
Arcata,Humboldt,CA,180,40.8665166,-124.0828396
Camp Grant,Humboldt,CA,16,40.3395846,-123.8972616
Eureka,Humboldt,CA,610,40.8020712,-124.1636729
False Cape,Humboldt,CA,12,40.5101301,-124.3867234
Ferndale,Humboldt,CA,53,40.5762406,-124.2639442
Gas Jet,Humboldt,CA,12,40.466111,-124.367222
Hoopa,Humboldt,CA,43,41.0504076,-123.6742236
Hydesville,Humboldt,CA,77,40.5490227,-124.093383
Orleans,Humboldt,CA,20,41.3015154,-123.5411704
Petrolea,Humboldt,CA,62,40.3254132,-124.2869926
Rohnerville,Humboldt,CA,57,40.5670768,-124.135607
Table Bluff,Humboldt,CA,12,40.6581838,-124.2164464
Trinidad,Humboldt,CA,17,41.0604022,-124.1436803
Weitchpec,Humboldt,CA,5,41.1898489,-123.6967274
Big Pine,Inyo,CA,12,37.1649307,-118.289546
Cerro Gordo,Inyo,CA,12,36.5393799,-117.791744
Fish Springs,Inyo,CA,12,37.0749325,-118.2531552
Independence,Inyo,CA,180,35.5855128,-119.334001
Lone Pine,Inyo,CA,12,36.6060444,-118.0628654
Olancha,Inyo,CA,12,36.2818827,-118.0064718
Bakersfield,Kern,CA,30,35.3694033,-119.0239905
Havilah,Kern,CA,230,35.5177324,-118.5186972
Kernville,Kern,CA,74,35.7571732,-118.4178625
Linn's Valley,Kern,CA,49,35.7302305,-118.7042552
Tehichipa,Kern,CA,12,35.142778,-118.494722
Weldon,Kern,CA,12,35.6657864,-118.2903579
Glenbrook,Lake,CA,12,38.8515695,-122.758602
Guenoc,Lake,CA,20,38.7890691,-122.5658161
Kelseyville,Lake,CA,77,38.9779531,-122.8394375
Knoxville,Napa,CA,89,38.8276783,-122.3405326
Lakeport,Lake,CA,82,39.0429506,-122.9158293
Lower Lake,Lake,CA,170,38.9104546,-122.6102614
Middletown,Lake,CA,12,38.755895,-122.6145945
Morgan,Lake,CA,7,38.8814,-122.45
Upper Lake,Lake,CA,47,39.163459,-122.9017747
Coppervale,Lassen,CA,7,40.3465575,-120.9049574
Hayden,Lassen,CA,12,40.995556,-120.887222
Janesville,Lassen,CA,60,40.3032309,-120.5327231
Junction House,Lassen,CA,12,39.7752,-120.0396
Long Valley,Lassen,CA,12,40.0285146,-120.1063162
Milford,Lassen,CA,12,40.1712892,-120.3724376
Susanville,Lassen,CA,530,40.4162842,-120.6530063
Compton,Los Angeles,CA,12,33.89109,-118.22686
Downey,Los Angeles,CA,20,33.93915,-118.12753
Los Angeles,Los Angeles,CA,2100,34.05618,-118.3323
El Monte,Los Angeles,CA,77,34.06433,-118.03537
Petroliopolis,Los Angeles,CA,93,,
Pomona,Los Angeles,CA,26,33.64935,-117.92813
Ravena City,Los Angeles,CA,12,34.439,-118.225
San Gabriel,Los Angeles,CA,19,34.0972312,-118.1075695
Wilmington,Los Angeles,CA,830,33.79711,-118.27399
Bolinas,Marin,CA,48,37.9093702,-122.6863733
Nicasio,Marin,CA,12,38.0685298,-122.7038351
Novato,Marin,CA,15,38.1074199,-122.5697032
Olema,Marin,CA,86,38.0421454,-122.7891571
San Quentin,Marin,CA,110,37.9413133,-122.4849739
San Rafael,Marin,CA,410,37.9727013,-122.5319208
Sausalito,Marin,CA,12,37.8590938,-122.4852507
Tomales,Marin,CA,80,38.2474194,-122.8952909
Bear Valley,Mariposa,CA,110,37.5688237,-120.1171266
Coulterville,Mariposa,CA,150,37.710486,-120.1979658
Hornitas,Mariposa,CA,270,37.502437,-120.2385188
Indian Gulch,Mariposa,CA,10,37.439383,-120.1968485
Mariposa,Mariposa,CA,230,36.1832759,-117.659514
Mount Bullion,Mariposa,CA,38,37.5071591,-120.0448999
Yosemite,Mariposa,CA,12,37.7488141,-119.5912765
Albion,Mendocino,CA,25,39.223098,-123.7692485
Anderson,Mendocino,CA,24,39.0237,-123.3824
Cahto,Mendocino,CA,180,39.65745647,-123.5225748
Covelo,Mendocino,CA,110,39.7929324,-123.2480687
Cuffey's Cove,Mendocino,CA,12,39.1410141,-123.7311267
Fish Rock,Mendocino,CA,12,38.8049105,-123.5852897
Gualala,Mendocino,CA,85,38.7657447,-123.5280651
Hermitage,Mendocino,CA,4,38.88130417,-123.163045
Hopland,Mendocino,CA,12,38.9672083,-123.1187814
Little River,Mendocino,CA,60,39.2707318,-123.7883473
Mendocino,Mendocino,CA,380,39.3115699,-123.7845313
Navarro,Mendocino,CA,12,39.1518426,-123.5419555
Point Arena,Mendocino,CA,230,38.9146867,-123.6993418
Potter Valley,Mendocino,CA,12,39.3221089,-123.113059
Sherwood Valley,Mendocino,CA,17,39.527938,-123.4552907
Ukiah,Mendocino,CA,250,39.1501709,-123.2077831
Willits,Mendocino,CA,56,39.4172491,-123.3540787
Yorkville,Mendocino,CA,12,38.8979586,-123.2144507
Alexandria,Merced,CA,12,37.40959522,-120.633942
Brickville,Merced,CA,12,37.30215763,-120.5192722
Dover,Merced,CA,12,,
Hopeton,Merced,CA,170,37.4916032,-120.5260289
Merced,Merced,CA,12,37.3021633,-120.4815788
Merced Falls,Merced,CA,23,37.5229918,-120.3324115
Plainsberg,Merced,CA,12,37.2329983,-120.324348
San Luis Ranch,Merced,CA,12,37.1596655,-120.813529
Snelling,Merced,CA,200,37.5191028,-120.4374151
Union,Merced,CA,64,37.27980502,-120.1840748
Adin,Modoc,CA,12,41.19378,-120.945245
Cedarville,El Dorado,CA,12,38.5687956,-120.6485408
Eagleville,Modoc,CA,34,41.3162846,-120.1157746
Fort Bidwell,Modoc,CA,260,41.8560019,-120.1518942
Lake City,Modoc,CA,170,41.6426708,-120.2168926
Benton,Mono,CA,31,37.8002103,-118.5290107
Bishop,Inyo,CA,81,37.3635404,-118.3951101
Bridgeport,Mono,CA,10,38.2546416,-119.2284876
Coleville,Mono,CA,22,38.5682432,-119.5087787
Castroville,Monterey,CA,520,36.7657904,-121.758005
Chualar,Monterey,CA,12,36.5721488,-121.5161229
Gabilan,Monterey,CA,12,36.4284159,-121.320177
Monterey,Monterey,CA,640,36.5952358,-121.9015712
Natividad,Monterey,CA,87,36.732737,-121.5966111
Picacho,San Benito,CA,12,36.3466258,-120.6948943
Pleito,Monterey,CA,12,35.8144123,-121.0904713
Salinas,Monterey,CA,580,36.6777372,-121.6555013
San Antonio,Monterey,CA,150,35.9435149,-121.0830439
Santa Rita,Monterey,CA,12,36.7243127,-121.6524581
Soledad,Monterey,CA,12,36.4367297,-121.3254066
Calistoga,Napa,CA,26,38.5787966,-122.5797054
Monticello,Napa,CA,73,38.5776843,-122.207197
Napa,Napa,CA,1300,38.2971367,-122.2855293
Oakville,Napa,CA,41,38.4368549,-122.4022007
Pope Valley,Napa,CA,12,38.6151837,-122.427757
Rutherford,Napa,CA,12,38.4590766,-122.4227568
Saint Helena,Napa,CA,290,38.5051866,-122.4702578
Yountville,Napa,CA,37,38.4032447,-122.3627551
Zem Zem,Napa,CA,12,38.753514,-122.2849771
Anthony House,Nevada,CA,12,39.235,-121.203056
French Corral,Nevada,CA,12,39.3060036,-121.1613445
Graniteville,Nevada,CA,12,39.4407321,-120.7396623
Grass Valley,Nevada,CA,3200,39.2190608,-121.0610606
Little York,Nevada,CA,17,39.195175,-120.8771629
Moore's Flat,Nevada,CA,150,39.4190631,-120.8507781
Nevada City,Nevada,CA,2400,39.2654494,-121.0191153
North Bloomfield,Nevada,CA,42,39.3682289,-120.8993903
North Columbia,Nevada,CA,60,39.3726713,-120.9871723
North San Juan,Nevada,CA,330,39.3701699,-121.1024545
Omega,Nevada,CA,24,39.3332326,-120.7493825
Patterson,Nevada,CA,33,39.3701706,-121.0430077
Rough and Ready,Nevada,CA,180,39.2301715,-121.1360642
Soda Springs,Nevada,CA,12,39.3232377,-120.3799251
Sweetland,Nevada,CA,28,39.3429479,-121.1202324
Truckee,Nevada,CA,430,39.3282397,-120.1843644
Washington,Nevada,CA,86,39.3585091,-120.799941
You Bet,Nevada,CA,64,39.2090633,-120.899942
Anaheim,Orange,CA,220,33.8344597,-117.9256151
Capistrano,Orange,CA,7,34.2166709,-118.6161988
Santa Ana,Orange,CA,12,33.8361268,-117.8461682
Alta,Placer,CA,12,39.2065652,-120.8113268
Auburn,Placer,CA,410,38.8993431,-121.0693898
Bath,Placer,CA,71,39.0360103,-120.7932659
Blue Canyon,Placer,CA,31,39.2571225,-120.711046
Butcher Ranch,Placer,CA,20,38.9560093,-120.9541076
Cisco,Placer,CA,12,39.3015691,-120.5468742
Clipper Gap,Placer,CA,23,38.9693418,-121.017444
Colfax,Placer,CA,500,39.0993409,-120.9554982
Dutch Flat,Placer,CA,760,39.206009,-120.8377169
Emigrant Gap,Placer,CA,10,39.2976784,-120.6716011
Forest Hill,Placer,CA,190,39.0201768,-120.8179891
Gold Run,Placer,CA,200,39.1751754,-120.8610506
Iowa Hill,Placer,CA,150,39.1098983,-120.8427149
Lincoln,Placer,CA,210,38.891565,-121.2930079
Loomis,Placer,CA,55,38.8212889,-121.1930041
Michigan Bluff,Placer,CA,160,39.0429556,-120.7413191
Newcastle,Placer,CA,200,38.8735102,-121.1332806
Rocklin,Placer,CA,150,38.7907339,-121.2357828
Roseville,Placer,CA,61,38.7482347,-121.2852281
Sheridan,Placer,CA,21,38.9796179,-121.3755114
Tahoe,Placer,CA,15,39.1740736,-120.1365809
Todd's Valley,Placer,CA,35,38.9979543,-120.8516017
Yankee Jim's,Placer,CA,38,39.0293428,-120.8616029
Beckwith,Plumas,CA,12,39.8201799,-120.3788225
Bucks,Plumas,CA,12,39.8725,-121.18
Buckeye Ranch,Plumas,CA,12,39.795556,-121.304167
Crescent Mills,Plumas,CA,12,40.0954468,-120.9121771
Durham,Butte,CA,35,39.6462733,-121.7999767
Greenville,Plumas,CA,12,40.1407237,-120.9496785
Jamison,Plumas,CA,12,39.741286,-120.6999428
La Porte,Plumas,CA,340,39.6821146,-120.9841206
Longville,Plumas,CA,16,40.1476627,-121.2446869
Meadow Valley,Plumas,CA,38,39.9304458,-121.0607909
Mohawk,Plumas,CA,12,39.778787,-120.6354971
Nelson Point,Plumas,CA,12,39.860449,-120.8541172
Prattville,Plumas,CA,12,40.208775,-121.1566291
Quincy,Plumas,CA,180,39.9368363,-120.9471764
Round Valley,Plumas,CA,16,40.1157236,-120.9677343
Sawpit,Plumas,CA,44,39.7957269,-120.8818949
Spanish Ranch,Plumas,CA,52,39.9507235,-121.0571798
Taylorsville,Plumas,CA,150,40.0748921,-120.8418974
Vinton,Plumas,CA,49,39.804349,-120.1782603
Rincon,Riverside,CA,12,33.288056,-116.958056
Riverside,Riverside,CA,12,33.9533487,-117.3961564
San Jacinto,Riverside,CA,12,33.7722419,-116.9583571
Temecula Station,Riverside,CA,12,33.4969722,-117.1525317
Arno,Sacramento,CA,68,38.3254686,-121.3135603
Perkins,Sacramento,CA,71,38.5446288,-121.3432845
Cosumne,Sacramento,CA,35,38.4924085,-121.1749466
Courtland,Sacramento,CA,27,38.3315787,-121.5693993
Elk Grove,Sacramento,CA,41,38.4087993,-121.3716178
Elk Grove,Sacramento,CA,41,38.4087993,-121.3716178
Emmaton,Sacramento,CA,12,38.0801969,-121.732177
Florin,Sacramento,CA,20,38.4960187,-121.4088416
Folsom City,Sacramento,CA,360,38.6779591,-121.1760583
Franklin,Sacramento,CA,25,38.3790776,-121.4543973
Freeport,Sacramento,CA,18,38.480741,-121.4927326
Galt,Sacramento,CA,12,38.2546373,-121.2999485
Michigan Bar,Sacramento,CA,88,38.4837978,-121.0513324
Mills,Sacramento,CA,12,38.5987943,-121.3038392
Mormon Island,Sacramento,CA,42,38.703514,-121.1174457
Richland,Sacramento,CA,35,38.3682444,-121.5174543
Sacramento,Sacramento,CA,4000,38.556017,-121.4663433
Sheldon,Sacramento,CA,12,38.4307433,-121.3002273
Union House,Sacramento,CA,12,38.4721304,-121.4527315
Walnut Grove,Sacramento,CA,20,38.2411111,-121.5147222
Hollister,San Benito,CA,400,36.8510657,-121.4007687
San Benito,San Benito,CA,12,36.8007801,-121.3652196
San Juan,San Benito,CA,350,36.8418104,-121.5319726
Tres Pinos,San Benito,CA,12,36.7907906,-121.3218763
Cucamonga,San Bernardino,CA,12,34.0967,-117.59278
San Bernardino,San Bernardino,CA,460,34.13147,-117.29463
Ballena,San Diego,CA,12,33.0653225,-116.7466892
Campo,San Diego,CA,12,32.6247817,-116.4741831
Julian,San Diego,CA,12,33.0769885,-116.5952969
Milguatay,San Diego,CA,9,32.848889,-116.557222
National City,San Diego,CA,12,32.6710181,-117.0971263
North San Diego,San Diego,CA,150,32.753023,-117.1948797
Oak Grove,San Diego,CA,12,33.3850338,-116.7891887
Otay,San Diego,CA,12,32.5947777,-117.0644718
Poway,San Diego,CA,12,32.9983779,-117.0244759
San Diego,San Diego,CA,150,33.2108727,-116.7983567
San Luis Rey,San Diego,CA,58,33.2319797,-117.3236485
Warner's Ranch,San Diego,CA,12,33.2425388,-116.6652977
San Francisco,San Francisco,CA,4000,37.7749295,-122.4194155
Atlanta,San Joaquin,CA,18,37.8129826,-121.1207729
Banta,San Joaquin,CA,12,37.7543731,-121.3707773
Burwood,San Joaquin,CA,14,37.7615946,-120.9552127
Collegeville,San Joaquin,CA,12,37.9049252,-121.147442
Farmington,San Joaquin,CA,79,37.9304806,-121.0046613
Liberty,San Joaquin,CA,93,38.1318633,-121.2799475
Linden,San Joaquin,CA,23,38.0213118,-121.0838313
Lockeford,San Joaquin,CA,95,38.1635297,-121.1499447
Lodi,San Joaquin,CA,12,38.1301968,-121.2724473
Meinecke,San Joaquin,CA,12,,
Peters,San Joaquin,CA,12,37.9807573,-121.0479965
Stockton,San Joaquin,CA,3600,37.9574238,-121.289113
Tracy,San Joaquin,CA,12,37.7396513,-121.4252227
Waterloo,San Joaquin,CA,17,38.0315889,-121.1941118
Woodbridge,San Joaquin,CA,120,38.1501961,-121.3043925
Arroyo Grande,San Luis Obispo,CA,12,35.1205315,-120.5776691
Berros Creek,San Luis Obispo,CA,12,35.1063648,-120.587114
Cambria,San Luis Obispo,CA,39,35.5641381,-121.0813024
Cayucos,San Luis Obispo,CA,12,35.4499733,-120.9035149
Morro,San Luis Obispo,CA,12,35.3666409,-120.8474012
Paso Robles,San Luis Obispo,CA,12,35.6266369,-120.6910043
San Luis Obispo,San Luis Obispo,CA,590,35.2838111,-120.6490348
San Miguel,San Luis Obispo,CA,100,35.7496901,-120.6971159
Santa Margarita,San Luis Obispo,CA,12,35.3899734,-120.609057
Belmont,San Mateo,CA,16,37.5224367,-122.2758008
Colma,San Mateo,CA,12,37.6899466,-122.4600807
Half Moon Bay,San Mateo,CA,200,37.4635519,-122.4285862
Menlo Park,San Mateo,CA,12,37.4538274,-122.1821871
Millbrae,San Mateo,CA,12,37.5980639,-122.4014267
Pescadero,San Mateo,CA,160,37.247623,-122.3654596
Redwood City,San Mateo,CA,360,37.4852152,-122.2363548
San Gregorio,San Mateo,CA,12,37.3271651,-122.3871959
San Mateo,San Mateo,CA,210,37.5769749,-122.3295073
Searsville,San Mateo,CA,53,37.4024395,-122.2452445
Woodside,San Mateo,CA,67,37.4448632,-122.2304997
Ballards,Santa Barbara,CA,12,34.6396799,-120.1135812
Carpinteria,Santa Barbara,CA,12,34.394995,-119.5137339
Las Cruces,Santa Barbara,CA,12,34.5080438,-120.2290397
Santa Barbara,Santa Barbara,CA,510,34.4291637,-119.6940235
Suey,San Luis Obispo,CA,12,34.9633112,-120.3112689
Alma,Santa Clara,CA,56,37.1852231,-121.9871808
Alviso,Santa Clara,CA,45,37.426051,-121.9752373
Coyote,Santa Clara,CA,10,37.216611,-121.7405043
Evergreen,Santa Clara,CA,12,37.2807979,-121.7488924
Gilroy,Santa Clara,CA,800,37.0057816,-121.5682751
Los Gatos,Santa Clara,CA,12,37.2213333,-121.9844024
Madrone,Santa Clara,CA,12,37.3941074,-122.0194049
Mayfield,Santa Clara,CA,240,37.4232728,-122.1438529
Milpitas,Santa Clara,CA,84,37.4235504,-121.9063459
Mountain View,Santa Clara,CA,110,37.3860517,-122.0838511
San Felipe,Santa Clara,CA,12,36.970782,-121.4191017
San Isidro,Santa Clara,CA,12,36.9996702,-121.5263287
San Jose,Santa Clara,CA,3400,37.3499179,-121.8711789
Santa Clara,Santa Clara,CA,980,37.3446637,-121.944124
Saratoga,Santa Clara,CA,12,37.2557468,-122.0330804
Tennant,Santa Clara,CA,12,37.1149458,-121.6349449
Aptos,Santa Cruz,CA,12,36.9771,-121.8950657
Felton,Santa Cruz,CA,12,37.0513374,-122.0732973
Santa Cruz,Santa Cruz,CA,1100,36.976617,-122.0263517
Soquel,Santa Cruz,CA,73,36.9882834,-121.9563488
Watsonville,Santa Cruz,CA,900,36.9105088,-121.7552279
Anderson,Shasta,CA,20,40.448208,-122.2977815
Ball's Ferry,Shasta,CA,12,40.4173759,-122.1949998
Bell's Ridge,Shasta,CA,12,,
Cottonwood,Shasta,CA,32,40.3857087,-122.2808356
French Gulch,Shasta,CA,68,40.7007031,-122.6383512
Glenburn,Shasta,CA,12,41.0612737,-121.4902611
Hazel Creek,Shasta,CA,12,41.0718176,-122.3550112
Horse Town,Shasta,CA,17,,
Millville,Shasta,CA,120,40.5518195,-122.1697228
Shasta,Shasta,CA,540,40.588206,-122.4100094
Stillwater,Shasta,CA,12,40.49427,-122.49816
Alleghany,Sierra,CA,88,39.4696185,-120.843279
Downieville,Sierra,CA,800,39.5593405,-120.8268905
Fir Cap,Sierra,CA,12,39.6198951,-120.8543922
Forest,Sierra,CA,80,39.4912848,-120.8530022
Gibsonville,Sierra,CA,100,39.7401714,-120.9088398
Goodyear's Bar,Sierra,CA,16,39.5398949,-120.8843931
Loyalton,Sierra,CA,61,39.6762936,-120.2410385
Pike,Sierra,CA,12,39.4390595,-120.9980079
Port Wine,Sierra,CA,12,39.6604487,-120.9485634
Saint Louis,Sierra,CA,59,39.5393438,-120.6571611
Scales Diggings,Sierra,CA,12,39.5982257,-120.9924541
Sierra City,Sierra,CA,85,39.5673997,-120.6302161
Sierraville,Sierra,CA,71,39.5896256,-120.3674301
Table Rock,Sierra,CA,140,39.714894,-120.8866165
Bed Rock,Trinity,CA,12,,
Black Bear,Siskiyou,CA,12,41.2584696,-123.1533768
Callahans,Siskiyou,CA,13,41.3095885,-122.8014177
Cottage Grove,Siskiyou,CA,4,41.602623,-123.5056152
Crystal Creek,Siskiyou,CA,12,41.5165285,-122.8628101
Edgewood,Siskiyou,CA,12,41.4582041,-122.4316846
Etna Mills,Siskiyou,CA,24,41.4568065,-122.8947551
Fort Jones,Siskiyou,CA,240,41.6076387,-122.8403099
Gazelle,Siskiyou,CA,12,41.5218126,-122.5200217
Happy Camp,Siskiyou,CA,26,41.7931797,-123.3794996
Henley,Siskiyou,CA,57,41.9020838,-122.5633586
Klamath,Siskiyou,CA,12,41.5265092,-124.0384069
Little Shasta,Siskiyou,CA,12,41.7118121,-122.3914075
Oro Fino,Siskiyou,CA,35,41.5804153,-122.9214229
Petersburgh,Siskiyou,CA,12,41.1201,-123.0936
Sawyer's Bar,Siskiyou,CA,51,41.2973587,-123.1303203
Scott River,Siskiyou,CA,44,41.3123662,-122.8016956
Seiad Valley,Siskiyou,CA,9,41.8404056,-123.1925489
Sisson,Siskiyou,CA,12,41.3098746,-122.3105666
Virginia Ranch,Siskiyou,CA,12,,
Willow Ranch,Modoc,CA,12,41.9023885,-120.3582886
Yocumville,Siskiyou,CA,12,41.222912,-123.2494916
Yreka,Siskiyou,CA,820,41.7293075,-122.6372486
Batavia,Solano,CA,12,38.4062984,-121.8596853
Benicia,Solano,CA,950,38.049365,-122.1585777
Binghamton,Solano,CA,99,38.3512998,-121.8227388
Collinsville,Solano,CA,12,38.0768635,-121.849958
Cordelia,Solano,CA,12,38.2104715,-122.1358015
Denverton,Solano,CA,50,38.2246364,-121.8974615
Dixon,Solano,CA,12,38.4454641,-121.8246847
Elmira,Solano,CA,12,38.3499108,-121.907186
Maine Prairie,Solano,CA,40,38.3079677,-121.758847
Rio Vista,Solano,CA,95,38.1557502,-121.6913439
South Vallejo,Solano,CA,12,38.0876979,-122.2433027
Suisun City,Solano,CA,320,38.2382474,-122.040244
Vacaville,Solano,CA,210,38.3565773,-121.9877444
Vallejo,Solano,CA,2000,38.1040864,-122.2566367
Alexanderville,Sonoma,CA,12,38.6665756,-122.819715
Bloomfield,Sonoma,CA,160,38.3113051,-122.8497156
Bodega,Sonoma,CA,200,38.345194,-122.9738878
Geyserville,Sonoma,CA,28,38.707687,-122.9024964
Cloverdale,Sonoma,CA,90,38.8054624,-123.0172227
Duncan's Mills,Sonoma,CA,75,38.453803,-123.0550013
Fisherman's Bay,Sonoma,CA,71,38.6476905,-123.4002868
Plantation,Sonoma,CA,12,38.5901905,-123.3102862
Freestone,Sonoma,CA,37,38.3724152,-122.9155516
Fulton,Sonoma,CA,27,38.494633,-122.769433
Guerneville,Sonoma,CA,12,38.5018575,-122.9961102
Healdsburg,Sonoma,CA,560,38.6104658,-122.8691609
Lakeville,Sonoma,CA,69,38.2129726,-122.5502604
Ocean View,Sonoma,CA,12,38.3971376,-123.0944472
Petaluma,Sonoma,CA,1500,38.232417,-122.6366524
Santa Rosa,Sonoma,CA,570,38.4163011,-122.6619301
Sea View,Sonoma,CA,99,38.5454682,-123.2280625
Sebastopol,Sonoma,CA,82,38.4021359,-122.8238806
Sonoma,Sonoma,CA,260,38.291859,-122.4580356
Stony Point,Sonoma,CA,34,38.343248,-122.7416552
Two Rocks,Sonoma,CA,12,38.2663059,-122.7922133
Windsor,Sonoma,CA,140,38.5425623,-122.8184489
Ceres,Stanislaus,CA,12,37.5929873,-120.9549319
Crow's Landing,Stanislaus,CA,12,37.3938244,-121.0715976
Eugene,Stanislaus,CA,12,37.8929816,-120.8468785
Horr,Stanislaus,CA,12,37.6409667,-120.6291
Knight's Ferry,Stanislaus,CA,200,37.8204833,-120.6727051
La Grange,Stanislaus,CA,34,37.6635433,-120.4635289
Modesto,Stanislaus,CA,200,37.6390972,-120.9968782
Newman,Stanislaus,CA,12,37.3138267,-121.0207614
Turlock,Stanislaus,CA,12,37.4946568,-120.8465941
Meridian,Sutter,CA,20,39.1435032,-121.9144154
Nicolaus,Sutter,CA,36,38.9032305,-121.5777385
Pleasant Grove,Sutter,CA,12,38.8235103,-121.5041238
Sutter,Sutter,CA,12,39.1598915,-121.7527482
Sutter Station,Sutter,CA,12,39.162022,-121.746225
West Butte,Sutter,CA,20,39.1871131,-121.8880272
Yuba City,Sutter,CA,280,39.1393365,-121.6166331
Battle Creek,Tehama,CA,12,40.3551545,-122.1758317
Lassen,Tehama,CA,12,40.267104,-121.4474737
Moon's Ranch,Tehama,CA,5,40.3165388,-122.8811288
Red Bluff,Tehama,CA,430,40.1784886,-122.2358302
Tehama,Tehama,CA,120,40.0271015,-122.1211006
Vina,Tehama,CA,12,39.932936,-122.0538745
Big Bar,Trinity,CA,13,40.7431971,-123.2672564
Burnt Ranch,Trinity,CA,12,40.8334705,-123.4883764
Douglas City,Trinity,CA,39,40.6520897,-122.9447474
Junction City,Trinity,CA,13,40.7301436,-123.0550291
Lewiston,Trinity,CA,37,40.7073681,-122.8075227
Trinity,Trinity,CA,19,40.7395888,-122.9464156
Trinity Center,Trinity,CA,17,40.9812566,-122.7033553
Weaverville,Trinity,CA,390,40.7332,-122.9425265
Farmersville,Tulare,CA,24,36.3005061,-119.2070545
Plano,Tulare,CA,12,36.0435635,-119.0084343
Portersville,Tulare,CA,220,36.06523,-119.0167679
Visalia,Tulare,CA,690,36.3302284,-119.2920585
Woodville,Tulare,CA,12,36.0949526,-119.1984419
Big Oak Flat,Tuolumne,CA,96,37.8227058,-120.2560234
Chinese Camp,Tuolumne,CA,210,37.8710381,-120.4332511
Columbia,Tuolumne,CA,540,38.0363119,-120.4013061
Graysonville,Stanislaus,CA,12,37.564722,-121.180833
Groveland,Tuolumne,CA,20,37.8382608,-120.2326894
Jamestown,Tuolumne,CA,170,37.9552028,-120.4221395
Montezuma,Tuolumne,CA,20,38.1738054,-119.6190601
Shaw's Flat,Tuolumne,CA,83,38.0077016,-120.4093614
Sonora,Tuolumne,CA,1000,37.9799245,-120.3707488
Sugar Pine,Tuolumne,CA,12,38.0582555,-120.2015775
Hueneme,Ventura,CA,12,34.1597273,-119.1820514
Ventura,Ventura,CA,460,34.279724,-119.2903897
Black's Station,Yolo,CA,57,38.7965684,-121.8819117
Buckeye,Yolo,CA,75,38.58638873,-121.8924362
Capay,Yolo,CA,20,38.7076812,-122.0480266
Davisville,Yolo,CA,310,38.5449065,-121.7405167
Dunnigan,Yolo,CA,10,38.8851773,-121.9696908
Grafton,Yolo,CA,170,38.7996238,-121.718297
Madison,Yolo,CA,49,38.6793483,-121.9683023
Merritt,Yolo,CA,12,38.6140723,-121.7605182
Woodland,Yolo,CA,630,38.6785157,-121.7716305
Yolo,Yolo,CA,130,38.5776832,-121.5307895
Brown's Valley,Yuba,CA,160,39.2354474,-121.4082961
Brownsville,Yuba,CA,20,39.4732217,-121.2691283
Bullard's Bar,Yuba,CA,37,39.4226688,-121.1388457
Camptonville,Yuba,CA,240,39.4518363,-121.05051
Greenville,Yuba,CA,12,39.436557,-121.1774583
Hansonville,Butte,CA,40,39.4365555,-121.3260739
Marysville,Yuba,CA,3200,39.1457253,-121.5913547
Oregon House,Yuba,CA,52,39.344891,-121.2699602
Smartville,Yuba,CA,300,39.2073932,-121.2985701
Strawberry Valley,Yuba,CA,55,39.564057,-121.1069018
Timbuctoo,Yuba,CA,63,39.2168373,-121.3185709
Wheatland,Yuba,CA,30,39.0112836,-121.4230134
Arvada,Jefferson,CO,12,39.802922,-105.0866721
Badito,Huerfano,CO,32,37.7272317,-105.0141608
Bald Mountain,Gilpin,CO,730,39.7960988,-105.5461095
Bassetts Mills,El Paso,CO,26,39.04256911,-104.7379782
Bear Canyon,Douglas,CO,15,39.54047,-104.98151
Beaver Creek,Pueblo,CO,16,38.4180561,-104.9547051
Bents Fort,Bent,CO,40,38.042778,-103.429167
Big Thompson,Larimer,CO,58,40.4185947,-105.188873
Bijou Basin,Elbert,CO,9,39.1622116,-104.4241331
Black Hawk,Gilpin,CO,1600,39.7969322,-105.4938853
Booneville,Pueblo,CO,150,38.248613,-104.2569104
Boulder,Boulder,CO,220,40.01367,-105.27344
Breckenridge,Summit,CO,110,39.4793281,-106.0446015
Brownsville,Clear Creek,CO,12,39.695833,-105.726111
Buckskin,Park,CO,50,39.2908227,-106.0775192
Burlington,Boulder,CO,390,40.1463845,-105.107987
Butte Valley,Huerfano,CO,12,37.6663996,-104.956104
Cacharas,Huerfano,CO,12,37.3791796,-105.100281
Canon City,Fremont,CO,160,38.440985,-105.242447
Caribou,Boulder,CO,12,39.9808202,-105.5786115
Carnero,Saguache,CO,12,37.8805,-106.144
Castle Rock,Douglas,CO,12,39.3648395,-104.8596738
Central City,Gilpin,CO,4000,39.8019322,-105.5141639
Centreville,Chaffee,CO,12,38.6847187,-106.0914051
Cherry Creek,Arapahoe,CO,12,39.634547,-104.882861
Coal Creek,Boulder,CO,8,39.98282,-105.15765
Colfax,Custer,CO,12,,
Colorado City,El Paso,CO,200,38.7230447,-105.1410915
Conejos,Conejos,CO,59,37.0883453,-106.0197445
Costilla,Costilla,CO,32,36.9758,-105.531
Creswell,Jefferson,CO,12,39.6949,-105.3665
Currant Creek,Fremont,CO,12,38.5886059,-105.4138817
Deer Valley,Park,CO,12,39.4523,-105.4221
Delaware City,Summit,CO,22,39.4213765,-106.1972454
Denver,Denver,CO,4000,39.7510628,-104.9891497
Edgerton,El Paso,CO,12,38.9449,-104.8132
El Paso,El Paso,CO,12,38.8338816,-104.8213634
Empire City,Clear Creek,CO,55,39.7638763,-105.6822256
Erie,Weld,CO,12,40.0498717,-105.0470024
Evans,Weld,CO,130,40.3814184,-104.6963517
Fairplay,Park,CO,540,39.2249641,-106.0010614
Flemings Ranch,Weld,CO,8,,
Fort Collins,Larimer,CO,12,40.5309164,-105.0731578
Fort Garland,Costilla,CO,110,37.4288974,-105.4338999
Fort Lupton,Weld,CO,12,40.0835577,-104.8119459
Fort Lyon,Bent,CO,470,38.0922288,-103.1521504
Fountain,El Paso,CO,19,38.6828376,-104.7051789
Franktown,Douglas,CO,50,39.3909922,-104.7492596
Frosts Ranch,Douglas,CO,12,39.2801,-104.6894
Garibaldi,Saguache,CO,12,38.2486102,-105.9491798
Georgetown,Clear Creek,CO,2000,39.7066284,-105.6979886
Glen Grove,Douglas,CO,12,39.2605464,-104.9510941
Golden City,Jefferson,CO,600,39.8130425,-105.2185996
Gomers Mills,Elbert,CO,12,39.2368,-104.4361
Granite,Chaffee,CO,12,39.0436045,-106.2633553
Grant,Park,CO,12,39.45971,-105.6616715
Greeley,Weld,CO,1000,40.4229992,-104.7440495
Green City,Morgan,CO,12,,
Greenhorn,Pueblo,CO,12,37.9069531,-104.8533195
Hamilton,Park,CO,55,39.3402663,-105.9152925
Helena,Chaffee,CO,17,,
Hermosilla,Pueblo,CO,10,38.058333,-104.414167
Hillsborough,Weld,CO,12,40.3327603,-104.864417
Huerfano,Pueblo,CO,12,,
Huerfano Canyon,Huerfano,CO,12,,
Hughes,Arapahoe,CO,12,39.9852617,-104.8205283
Huntsville,Douglas,CO,12,39.2675,-104.8973
Idaho,Clear Creek,CO,300,39.7424881,-105.5136082
Jamestown,Boulder,CO,23,40.1157666,-105.3887884
Juaniata,Pueblo,CO,12,,
Julesburgh,Sedgwick,CO,50,40.9881452,-102.2659262
Keystone,Douglas,CO,12,39.4821,-104.989
Kiowa,Elbert,CO,12,39.3471023,-104.4592125
Kit Carson,Cheyenne,CO,1400,38.7611129,-102.7893667
Lake Station,Greenwood,CO,12,,
Laporte,Larimer,CO,12,40.6263711,-105.1377578
Las Animas,Bent,CO,12,38.0666735,-103.222708
Lincoln City,Summit,CO,20,39.4822093,-105.9558488
Littleton,Arapahoe,CO,12,39.6129752,-105.016656
Loma,Rio Grande,CO,12,37.6703,-106.2915
Middle Boulder,Boulder,CO,12,39.9613759,-105.5108312
Mill City,Clear Creek,CO,110,39.7647099,-105.600278
Montgomery City,Park,CO,20,39.35809,-106.0834
Monument,El Paso,CO,12,39.0940644,-104.8661543
Mount Vernon,Jefferson,CO,12,39.6909588,-105.208986
Muddy Creek,Pueblo,CO,12,38.0219515,-104.7280362
Namaqua,Larimer,CO,41,40.3992,-105.1218
Oro City,Lake,CO,210,39.2508229,-106.2925238
Pella,Boulder,CO,12,40.1894,-105.1776
Pine Grove,Douglas,CO,12,39.5277498,-104.8068238
Pueblo,Pueblo,CO,800,38.2544472,-104.609141
Rock Butte,Douglas,CO,9,39.24463377,-104.5962325
Rollinsville,Gilpin,CO,12,39.9164307,-105.5006575
Running Creek,Elbert,CO,12,39.3544655,-104.5985785
Saguache,Saguache,CO,31,38.0877778,-106.1369668
Saint Charles,Pueblo,CO,12,38.1388938,-104.6213649
Saint Marys,Huerfano,CO,12,37.6230682,-104.7780422
San Luis,Costilla,CO,33,37.2008483,-105.4239012
South Arkansas,Lake,CO,12,38.513333,-106.075556
South Side,Bent,CO,18,38.1291721,-104.0232934
Spanish Bar,Clear Creek,CO,94,39.7531219,-105.5703406
Spanish Peak,Huerfano,CO,12,37.4102901,-105.0977801
Spring Valley,Douglas,CO,40,39.1522138,-104.7702547
St. Vrain,Weld,CO,12,40.278889,-104.855
Sugar Loaf,Boulder,CO,8,40.0169306,-105.4072169
Trinidad,Las Animas,CO,460,37.1697222,-104.5030556
Valmont,Boulder,CO,78,40.0286977,-105.2264512
Walsenburgh,Huerfano,CO,12,37.6244444,-104.7791667
Ward District,Boulder,CO,27,40.072222,-105.51
White River,Summit,CO,12,40.1541396,-108.827053
Wulstenville,Fremont,CO,12,,
Atlanta,Elmore,ID,49,43.8021221,-115.1245252
Boise City,Ada,ID,1800,43.6135002,-116.2034505
Centreville,Boise,ID,38,43.9126714,-115.8923353
Eagle Rock,Bonneville,ID,12,43.4868582,-112.045249
Emmettsville,Gem,ID,12,43.9090527,-116.7109777
Fort Lemhi,Lemhi,ID,12,44.983259,-113.6400561
Georgetown,Oneida,ID,12,42.477778,-111.365833
Horseshoe Bend,Boise,ID,12,43.90739,-116.200958
Idaho City,Boise,ID,1400,43.8285046,-115.8345537
John Day's Creek,Idaho,ID,12,45.5851652,-116.2962485
Lapwai,Nez Perce,ID,100,46.3959975,-116.8018174
Leesburgh,Lemhi,ID,12,45.223808,-114.1139647
Lewiston,Nez Perce,ID,230,46.4165506,-117.0176569
Lower Boise,Canyon,ID,12,43.7598834,-116.8843163
Malad City,Oneida,ID,130,42.1915872,-112.2507986
Market Lake,Jefferson,ID,8,43.7712986,-112.1316412
Middleton,Canyon,ID,47,43.7201616,-116.6284697
Montpelier,Bear Lake,ID,12,42.3221498,-111.2977044
Mount Idaho,Idaho,ID,12,45.9037756,-116.0820868
Newsom Creek,Nez Perce,ID,12,45.907,-115.63
Ovid,Bear Lake,ID,12,42.2888154,-111.3982633
Oxford,Franklin,ID,12,42.2588098,-112.0213474
Paris,Bear Lake,ID,21,42.2263161,-111.3990957
Payetteville,Payette,ID,12,44.075278,-116.93
Pierce City,Clearwater,ID,38,46.4925,-115.799444
Pioneerville,Boise,ID,12,43.9687833,-115.8467795
Placerville,Boise,ID,210,43.9432267,-115.94706
Rock Creek,Twin Falls,ID,12,42.4321364,-114.3055859
Rocky Bar,Elmore,ID,150,43.6890636,-115.2900855
Ross Fork,Bingham,ID,12,43.0276933,-112.2874742
Saint Charles,Bear Lake,ID,15,42.1138188,-111.3888175
Salmon City,Lemhi,ID,12,45.178056,-113.902778
Salubria,Washington,ID,12,44.5634954,-116.6662692
Silver City,Owyhee,ID,550,43.0137708,-116.7337358
Slate Creek,Idaho,ID,12,45.6382199,-116.2804162
Soda Springs,Caribou,ID,1200,42.662143,-111.5932795
Squaw Creek,Gem,ID,12,43.9376665,-116.3670761
Washington,Idaho,ID,12,,
Weiser,Washington,ID,12,44.2615531,-116.9785
Weston,Franklin,ID,12,42.0371465,-111.9793979
White Bird,Idaho,ID,12,45.7615508,-116.3006974
Argenta,Beaverhead,MT,34,45.2796455,-112.861976
Bannack City,Beaverhead,MT,340,45.1610337,-112.9955907
Beartown,Powell,MT,12,46.793,-113.34
Blackfoot City,Powell,MT,340,46.6816016,-112.5430851
Boulder Valley,Jefferson,MT,100,46.2365947,-112.1208336
Bozeman,Gallatin,MT,1000,45.6796526,-111.0385582
Butte City,Silver Bow,MT,120,46.0038153,-112.5347447
Cable City,Deer Lodge,MT,12,46.1952031,-113.2092221
Callaway,Madison,MT,12,,
Canyon Creek,Lewis & Clark,MT,12,,
Canyon Ferry,Lewis & Clark,MT,32,46.6556,-111.7175
Cicero,Madison,MT,12,45.3527023,-112.1180437
Corvallis,Ravalli,MT,12,46.3140885,-114.1128734
Deer Lodge City,Powell,MT,1800,46.3971496,-112.7358719
Diamond City,Broadwater,MT,350,46.5971602,-111.4238527
East Gallatin,Gallatin,MT,12,45.9277059,-111.4980234
Emmettsburg,Granite,MT,12,46.5082604,-113.245344
Fish Creek,Madison,MT,12,45.8507598,-112.0511028
Forest City,Mineral,MT,12,47.0415884,-115.0384667
Fort Benton,Chouteau,MT,380,47.8230254,-110.6674366
Fort Shaw,Cascade,MT,110,47.5055075,-111.8102651
French Bar,Lewis & Clark,MT,12,46.655492,-111.7535926
French Gulch,Deer Lodge,MT,12,45.9443693,-113.0314324
Frenchtown,Missoula,MT,12,47.0149221,-114.2298394
Gallatin,Gallatin,MT,110,45.9277059,-111.4980234
German Gulch,Deer Lodge,MT,12,45.9610363,-112.8397581
Girds Creek,Ravalli,MT,12,46.2657549,-114.1356497
Green Wood,Deer Lodge,MT,12,46.6499349,-112.3577961
Greenhorn,Lewis & Clark,MT,12,46.6391017,-112.2452892
Hamilton,Gallatin,MT,90,45.8565951,-111.3324599
Harrisburgh,Powell,MT,12,46.8110479,-112.7514323
Helena,Lewis & Clark,MT,4000,46.595805,-112.027031
Horse Plains,Sanders,MT,12,47.4602135,-114.8829119
Iron Rod,Madison,MT,12,45.656315,-112.3313917
Jefferson City,Jefferson,MT,290,46.3882636,-112.0274957
Junction,Madison,MT,12,45.3235361,-111.997204
Lincoln,Lewis & Clark,MT,100,46.9549402,-112.6817071
Madison,Gallatin,MT,12,45.9082614,-111.5313583
McClellan Gulch,Powell,MT,12,46.5521553,-111.905823
Meadow Creek,Madison,MT,15,45.4588165,-111.7619212
Missoula,Missoula,MT,520,46.872146,-113.9939982
Nevada City,Madison,MT,100,45.3068696,-111.9674807
Phillipsburg,Granite,MT,43,46.3321477,-113.2942303
Pikes Peak,Powell,MT,12,46.502706,-112.9092143
Pioneer,Powell,MT,12,46.5124283,-112.9661616
Pollinger,Madison,MT,12,45.5202036,-112.3119437
Prickly Pear,Jefferson,MT,69,46.5377111,-111.9327688
Quartz Creek,Mineral,MT,12,47.0013098,-114.8601283
Radersburg,Broadwater,MT,230,46.1957622,-111.6319188
Red Mountain City,Silver Bow,MT,12,45.8152042,-112.4452913
Rochester,Madison,MT,12,45.6127036,-112.5058466
Saint Louis,Broadwater,MT,12,46.3385415,-111.6994221
Sheridan,Madison,MT,170,45.4554809,-112.1969372
Silver City,Lewis & Clark,MT,12,46.755,-112.17
Silver Star,Madison,MT,12,45.6846484,-112.3327811
Silverbow,Silver Bow,MT,12,45.9929813,-112.6772515
Springville,Broadwater,MT,28,46.3543757,-111.5771939
Sterling,Madison,MT,76,45.5652056,-111.7594221
Stevensville,Ravalli,MT,12,46.5099225,-114.0931588
Superior,Mineral,MT,12,47.0577,-115.0495784
Trout Creek,Fergus,MT,50,46.887464,-109.6801849
Twin Bridges,Madison,MT,12,45.5443703,-112.331112
Unionville,Lewis & Clark,MT,12,46.541,-112.085
Virginia City,Madison,MT,2000,45.2938143,-111.9460911
Warmsprings,Deer Lodge,MT,12,46.1813145,-112.78476
Washington Gulch,Powell,MT,12,46.7679919,-112.6842055
Watson,Beaverhead,MT,12,45.1304768,-112.7225226
White Hall,Jefferson,MT,14,45.8707598,-112.0974942
Willow Creek,Gallatin,MT,12,45.825206,-111.6446966
Abiquiu,Rio Arriba,NM,12,36.207241,-106.3186397
Albuquerque,Bernalillo,NM,970,35.0844909,-106.6511367
Aleman,Sierra,NM,12,32.9897967,-107.0075202
Bernalillo,Sandoval,NM,20,35.30004,-106.5511369
Chamita,Rio Arriba,NM,12,36.0703003,-106.0969681
Cimarron,Colfax,NM,100,35.510878,-104.9158297
Clifton,Colfax,NM,12,36.8178,-104.44
Dona Ana,Dona Ana,NM,12,32.3895356,-106.8119505
El Rito,Rio Arriba,NM,12,36.3433518,-106.1886356
Elizabethtown,Colfax,NM,600,36.619198,-105.2844501
Fort Bayard,Grant,NM,12,32.7961863,-108.1503221
Fort Craig,Socorro,NM,290,33.635623,-107.0147531
Fort Cummings,Luna,NM,150,32.4656414,-107.6464164
Fort Stanton,Lincoln,NM,150,33.495914,-105.5230362
Fort Union,Mora,NM,1700,35.907262,-105.0122258
La Bajada,Santa Fe,NM,12,35.5561447,-106.2408569
La Canada,Rio Arriba,NM,12,36.0802983,-106.3283621
La Cueva,Mora,NM,12,35.941705,-105.2491779
Lajoya,Socorro,NM,12,34.3461768,-106.8455817
Las Cruces,Dona Ana,NM,100,32.3123157,-106.7783374
Las Vegas,San Miguel,NM,270,35.5939325,-105.2177855
Leasburg,Dona Ana,NM,340,32.4539778,-106.8830646
Leasburgh,Dona Ana,NM,20,32.4539778,-106.8830646
Lemitar,Socorro,NM,18,34.1597887,-106.9103061
Los Lunas,Valencia,NM,130,34.8078326,-106.7333599
Los Pinos,Valencia,NM,18,35.1158787,-106.3166915
Manzano,Torrance,NM,12,34.6467267,-106.3450191
Mesilla,Dona Ana,NM,120,32.2700945,-106.8008376
Mora,Mora,NM,43,35.9742016,-105.3300127
Ocate,Mora,NM,12,36.175592,-105.0480608
Ojo Caliente,Taos,NM,12,36.3030765,-106.0466884
Pajarito,Bernalillo,NM,12,34.9864382,-106.6966923
Paraje,Socorro,NM,40,33.5564576,-107.0569747
Pinos Altos,Grant,NM,37,32.8634067,-108.2214362
Plaza Del Alcalde,Rio Arriba,NM,18,36.0597451,-106.0469673
Pojuaque,Santa Fe,NM,12,35.8928034,-106.0230784
Ralston,Hidalgo,NM,12,32.3259161,-108.7383876
Rincon,San Miguel,NM,42,35.8322573,-105.4208471
Rio Colorado,Taos,NM,12,36.6478004,-105.6933424
Rio Mimbres,Luna,NM,46,32.2586986,-107.6294706
San Antonio,Socorro,NM,12,33.9178438,-106.8658586
San Jose,San Miguel,NM,12,35.3972656,-105.4750124
San Marcial,Socorro,NM,12,33.7000664,-106.9872535
Santa Fe,Santa Fe,NM,2000,35.6869752,-105.937799
Silver City,Grant,NM,12,32.770075,-108.280326
Socorro,Socorro,NM,43,34.0583995,-106.8914159
Taos,Taos,NM,47,36.4072485,-105.5730665
Tierra Amarilla,Rio Arriba,NM,12,36.7002922,-106.5497566
Ute Creek,Colfax,NM,12,36.5580893,-105.1150045
Watrous,Mora,NM,12,36.2114119,-105.9169641
Aurora,Mineral,NV,12,38.2871421,-118.9006963
Austin,Lander,NV,2000,39.4907589,-117.0692563
Battle Mountain,Lander,NV,500,40.6126888,-117.056493
Battle Mountain,Humboldt,NV,12,40.6126888,-117.056493
Belmont,Nye,NV,520,38.5960444,-116.8742436
Bullion,Elko,NV,12,40.5321438,-115.9845146
Bullionville,Lincoln,NV,59,37.8032976,-114.4069343
Carlin,Elko,NV,230,40.7118622,-116.1084108
Carson City,Ormsby,NV,1600,39.1679652,-119.765459
Columbus,Esmeralda,NV,12,38.1102073,-118.0192767
Dayton,Lyon,NV,300,39.2371353,-119.5929521
Dun Glen,Pershing,NV,120,40.7418494,-117.9220791
Eberhardt,White Pine,NV,420,39.1949331,-115.4805905
Egan Canyon,Elko,NV,25,39.8647624,-114.911204
Elko,Elko,NV,1100,40.8340878,-115.7631232
Ellsworth,Nye,NV,41,38.9729811,-117.754829
Empire,Carson City,NV,140,39.1849106,-119.7132348
Eureka,Eureka,NV,660,39.512151,-115.961724
Excelsior,Elko,NV,12,41.7043465,-116.1689842
Fort Halleck,Elko,NV,130,40.8054802,-115.3369999
Galena,Lander,NV,12,40.5643557,-117.1301057
Genoa,Douglas,NV,270,39.0032413,-119.8476794
Glenbrook,Douglas,NV,12,39.0901859,-119.9390724
Golconda,Humboldt,NV,12,40.9565692,-117.4917883
Gold Hill,Storey,NV,1700,39.2904678,-119.6574011
Hamilton,White Pine,NV,1700,39.2529882,-115.4864251
Hiko,Lincoln,NV,130,37.5844037,-115.2252997
Hot Creek,Nye,NV,85,38.5143777,-116.348391
Ione City,Nye,NV,65,39.0402042,-117.6214917
McDermitt,Humboldt,NV,12,41.9976665,-117.7181975
Mill City,Pershing,NV,29,40.6835164,-118.0704176
Mineral City,White Pine,NV,12,39.2604946,-114.9314089
Mineral Hill,Eureka,NV,330,40.1604792,-116.0972902
Mountain City,Elko,NV,240,41.8382363,-115.9653694
Oreana,Pershing,NV,44,40.3107415,-118.3704239
Palisade,Eureka,NV,100,40.6101953,-116.1986889
Paradise Valley,Humboldt,NV,12,41.4915632,-117.5351292
Pinegrove,Lyon,NV,12,38.6782485,-119.1240401
Pioche,Lincoln,NV,500,37.9296851,-114.4516584
Reno,Washoe,NV,550,39.524633,-119.8118581
Reveille,Nye,NV,5,38.0043804,-116.1889371
Rockland,Lyon,NV,12,38.6521379,-119.0943165
Ruby Valley,Elko,NV,68,40.4221508,-115.4108831
Sheridan,Douglas,NV,44,38.8982401,-119.8224006
Silver City,Lyon,NV,400,39.2635236,-119.640455
Silver Peak,Esmeralda,NV,12,37.753542,-117.6364816
Sweetwater,Lyon,NV,12,38.462416,-119.1748742
Treasure City,White Pine,NV,1100,39.2296551,-115.4800356
Truckee Meadows,Washoe,NV,140,39.4696332,-119.7971342
Tuscarora,Elko,NV,12,41.3140735,-116.2217565
Twin River,Nye,NV,110,38.9446518,-117.2753686
Unionville,Pershing,NV,230,40.4454634,-118.1206953
Vanderbilt,Eureka,NV,12,39.4246515,-115.9783901
Verdi,Washoe,NV,68,39.5182427,-119.9888113
Virginia City,Storey,NV,4000,39.3096345,-119.6496235
Wadsworth,Washoe,NV,470,39.6318566,-119.2871144
Walker River,Esmeralda,NV,12,38.7940779,-119.3679384
Washington,Nye,NV,12,39.1552063,-117.2353688
Washoe,Washoe,NV,440,39.3201879,-119.8096307
Wells,Elko,NV,12,41.111311,-114.9639345
White Rock,Elko,NV,12,41.7418458,-116.1862076
Winnemucca,Humboldt,NV,300,40.9735139,-117.7362405
Yerington,Lyon,NV,12,38.9857508,-119.1629309
Albany,Linn,OR,600,44.637344,-123.0978724
Alsea,Benton,OR,12,44.3808333,-123.5947222
Amity,Yamhill,OR,61,45.1136111,-123.2052778
Antelope,Wasco,OR,12,44.9106819,-120.7228173
Applegate,Jackson,OR,24,42.2538889,-123.1525
Ashland,Jackson,OR,120,42.1925,-122.6872222
Astoria,Clatsop,OR,530,46.189369,-123.8352045
Auburn,Baker,OR,110,44.6993215,-117.9452176
Augusta,Baker,OR,12,44.9804352,-117.3690812
Aumsville,Marion,OR,25,44.8477778,-122.8761111
Aurora,Marion,OR,45,45.2230465,-122.7596478
Baker City,Baker,OR,320,44.7870965,-117.8371625
Barlow,Clackamas,OR,12,45.2517872,-122.7206484
Bellevue,Yamhill,OR,21,45.1153935,-123.3162168
Bethel,Polk,OR,30,45.0403956,-123.1848237
Bridge Creek,Wasco,OR,12,44.6990216,-120.2858523
Bridgeport,Polk,OR,22,44.8392848,-123.3642696
Brooks,Marion,OR,12,45.048175,-122.9584291
Brownsville,Linn,OR,150,44.3934571,-122.9848108
Buena Vista,Polk,OR,31,44.7695649,-123.1506524
Butteville,Marion,OR,55,45.2623415,-122.8403743
Camas Valley,Douglas,OR,12,43.0344444,-123.675
Camp Creek,Lane,OR,12,44.1184599,-122.8136903
Camp Watson,Grant,OR,12,44.4851398,-119.8949923
Canby,Clackamas,OR,12,45.2569444,-122.6986111
Canyon City,Grant,OR,630,44.3895995,-118.9502315
Cartwrights,Lane,OR,12,43.7942884,-123.2081428
Cayuse,Umatilla,OR,12,45.676427,-118.566121
Centerville,Washington,OR,18,45.5512258,-123.0651069
Chetco,Curry,OR,19,42.006778,-124.2039763
Clackamas,Clackamas,OR,12,45.4183333,-122.5347222
Coast Fork,Lane,OR,12,43.8665128,-123.0311917
Columbia City,Columbia,OR,12,45.8901144,-122.8070481
Coquille,Coos,OR,12,43.1852778,-124.1941667
Corvallis,Benton,OR,600,44.575,-123.2669444
Cove,Baker,OR,39,45.2966667,-117.8086111
Crawfordsville,Linn,OR,12,44.3558333,-122.8561111
Dallas,Polk,OR,180,44.9163889,-123.3036111
Damascus,Clackamas,OR,12,45.417621,-122.4589783
Dayton,Yamhill,OR,160,45.2163889,-123.0844444
Dayville,Grant,OR,7,44.4675,-119.5380556
Deschutes,Sherman,OR,12,45.259566,-121.0392286
Eagle Creek,Clackamas,OR,16,45.6409505,-121.9306365
East Portland,Multnomah,OR,12,45.5153962,-122.6603733
El Dorado,Baker,OR,12,44.4262704,-117.7457612
Elk Horn,Polk,OR,12,45.0456707,-123.4317737
Elkhorn,Umpqua,OR,12,,
Elkton,Douglas,OR,12,43.6380556,-123.5702778
Empire,Coos,OR,180,43.3665007,-124.2178903
Eola,Polk,OR,42,44.9323414,-123.1181537
Eugene,Lane,OR,610,44.0540136,-123.0936983
Fairfield,Marion,OR,12,45.134563,-123.00621
Forest Grove,Washington,OR,190,45.5206697,-123.1059408
Franklin,Lane,OR,19,44.1609565,-123.3045399
Galesville,Douglas,OR,22,42.7781753,-123.2958964
Gardiner,Douglas,OR,43,43.730117,-124.11039
Garibaldi,Tillamook,OR,12,45.5619444,-123.9141667
Glencoe,Washington,OR,12,45.6001152,-122.99205
Grand Ronde,Polk,OR,8,45.060113,-123.6092771
Grant,Grant,OR,12,44.4276526,-119.1094044
Grants Pass,Josephine,OR,19,42.4444444,-123.3180556
Greenville,Washington,OR,12,45.5928914,-123.1142754
Halsey,Linn,OR,12,44.3897441,-123.1086758
Harrisburgh,Linn,OR,150,44.2697222,-123.1608333
Highland,Clackamas,OR,12,45.2481777,-122.4092523
Hillsboro,Washington,OR,82,45.5223789,-122.9903216
Hood River,Wasco,OR,7,45.7053966,-121.5214623
Hubbard,Marion,OR,12,45.1797641,-122.807432
Humboldt Basin,Baker,OR,64,44.4262709,-117.6010329
Independence,Polk,OR,51,44.8525,-123.1894444
Jacksonville,Jackson,OR,640,42.3172222,-122.9583333
Jefferson,Marion,OR,79,44.7316667,-123.0113889
Jordan Valley,Malheur,OR,12,42.9777778,-117.0536111
Kerby,Josephine,OR,35,42.1942798,-123.651735
La Grande,Baker,OR,320,45.3216667,-118.0972222
Lafayette,Yamhill,OR,210,45.2442834,-123.1148259
Lebanon,Linn,OR,88,44.5218426,-122.908349
Leland,Josephine,OR,26,42.6384498,-123.4408984
Lewisville,Polk,OR,12,44.7881744,-123.3453795
Lincoln,Polk,OR,7,45.0198409,-123.0839875
Little Elk,Lincoln,OR,12,44.6451186,-123.7853889
Long Tom,Lane,OR,9,44.0495672,-123.3895418
Lookingglass,Douglas,OR,12,43.1784485,-123.4861887
Marion,Marion,OR,12,44.7488889,-122.9369444
Marshfield,Coos,OR,12,43.3665007,-124.2178903
McMinnville,Yamhill,OR,160,45.209283,-123.1817714
Meadowville,Umatilla,OR,40,45.7790209,-119.2247355
Middleton,Washington,OR,12,45.3536111,-122.8663889
Milwaukie,Clackamas,OR,68,45.4411111,-122.6375
Molalla,Clackamas,OR,12,45.1533333,-122.5941667
Monitor,Marion,OR,12,45.1015099,-122.7481463
Monmouth,Polk,OR,96,44.8527778,-123.2247222
Mountain Home,Yamhill,OR,15,45.317891,-123.3178868
Myrtle Creek,Douglas,OR,20,43.0201174,-123.2931205
Needy,Clackamas,OR,44,45.1726211,-122.7025911
Nestocton,Tillamook,OR,8,45.3803838,-123.8026201
Netarts,Tillamook,OR,12,45.4348252,-123.9459611
Newberg,Yamhill,OR,12,45.3001179,-122.9731565
Newport,Lincoln,OR,26,44.6391667,-124.0463889
North Powder,Union,OR,12,45.0284737,-117.9199386
North Yamhill,Yamhill,OR,45,45.3415037,-123.1873291
Oakland,Douglas,OR,210,43.4283333,-123.2980556
Oregon City,Clackamas,OR,820,45.3567875,-122.5962024
Oswego,Clackamas,OR,12,45.4206749,-122.6706498
Pendleton,Umatilla,OR,12,45.6755556,-118.805
Peoria,Linn,OR,66,44.4487336,-123.2073187
Peoria,Linn,OR,66,44.4487336,-123.2073187
Perrydale,Polk,OR,12,45.0416667,-123.2572222
Philomath,Benton,OR,12,44.535,-123.3561111
Phoenix,Jackson,OR,35,42.2758333,-122.8233333
Pilot Rock,Umatilla,OR,12,45.4827778,-118.8308333
Pine,Linn,OR,6,44.2098462,-123.1073117
Portland,Multnomah,OR,4000,45.5215071,-122.6739849
Prairie City,Grant,OR,12,44.4562691,-118.7093919
Rainier,Columbia,OR,24,46.0851127,-122.9309437
Randolph,Coos,OR,38,43.1678871,-124.3565029
Rock Point,Jackson,OR,51,42.4320664,-123.098939
Roseburgh,Douglas,OR,420,43.2084495,-123.3422935
Rye Valley,Baker,OR,12,44.4637717,-117.4774174
Saint Helen,Columbia,OR,150,45.8595589,-122.813159
Saint Louis,Marion,OR,30,45.1226192,-122.942319
Salem,Marion,OR,2000,44.9428975,-123.0350963
Salt Creek,Polk,OR,13,44.9956722,-123.3528825
Sauvie Island,Columbia,OR,5,45.6556712,-122.8259347
Scholls,Washington,OR,12,45.4492847,-122.786209
Scio,Linn,OR,100,44.7088889,-122.8483333
Scottsburg,Douglas,OR,38,43.654006,-123.8167679
Shedds,Linn,OR,12,44.4615118,-123.1103713
Sheridan,Yamhill,OR,12,45.0952778,-123.3938889
Silverton,Marion,OR,77,45.0144444,-122.7955556
Siuslaw,Lane,OR,10,43.9861111,-124.1044444
Skipanon,Clatsop,OR,12,46.14806,-123.9275
Spanish Hollow,Wasco,OR,12,45.6679016,-120.8383964
Springfield,Lane,OR,26,44.0536111,-123.0158333
Springville,Multnomah,OR,22,45.5859501,-122.7734325
Sublimity,Marion,OR,28,44.8295663,-122.7945335
Summerville,Union,OR,43,45.4884699,-118.0029941
Summit,Benton,OR,12,43.2453881,-124.2239995
Ten Mile,Douglas,OR,12,43.0962263,-123.5642445
The Dalles,Wasco,OR,760,45.5945645,-121.1786823
Tillamook,Tillamook,OR,12,45.4486111,-123.8361111
Toledo,Lincoln,OR,24,44.6175,-123.9202778
Turner,Marion,OR,12,44.8502823,-122.9550651
Umatilla,Umatilla,OR,420,45.9161111,-119.3366667
Union,Baker,OR,130,45.2061111,-117.8661111
Upper Ochoco,Wasco,OR,12,44.3276299,-120.6427948
Vernon,Marion,OR,10,44.9915092,-122.9137047
Waconda,Marion,OR,48,45.075397,-122.9770413
Waldo,Josephine,OR,28,42.0609474,-123.6481229
Wasco,Sherman,OR,12,45.5917918,-120.698113
West Chehalem,Yamhill,OR,12,45.3331719,-123.0789931
Weston,Umatilla,OR,12,45.813744,-118.424688
Westport,Clatsop,OR,35,46.1326105,-123.3748481
Wheatland,Yamhill,OR,21,45.0926185,-123.0500992
Wilbur,Douglas,OR,12,43.32095,-123.3406306
Willamette,Clackamas,OR,7,45.3430556,-122.6527778
Wingville,Baker,OR,12,44.8395934,-117.921607
Yoncalla,Douglas,OR,16,43.5952778,-123.2838889
Zena,Polk,OR,12,45.0087295,-123.1295439
Adamsville,Beaver,UT,10,38.2583031,-112.7938352
Alma,Weber,UT,12,41.2488333,-112.0782749
Alpine City,Utah,UT,27,40.4532834,-111.7779865
American Fork,Utah,UT,130,40.3752288,-111.7963201
Bellevue,Washington,UT,20,37.3408149,-113.2741158
Bingham Canyon,Salt Lake,UT,12,40.5416128,-112.1479974
Bloomington,Richland,UT,12,,
Brigham City,Box Elder,UT,400,41.5102129,-112.0155015
Bullion,Piute,UT,12,38.41,-112.339
Cedar City,Iron,UT,200,37.6766436,-113.0571708
Cedar Valley,Utah,UT,13,40.3271707,-112.1043852
Centerville,Davis,UT,34,40.9205768,-111.8784514
Central City,Salt Lake,UT,12,40.75,-111.866667
Chicken Creek,Juab,UT,49,39.5585686,-111.8618734
Clarkston,Cache,UT,12,41.9202033,-112.0499536
Clifton,Cache,UT,12,42.1875,-112.005833
Clover Valley,Washington,UT,12,40.917222,-111.398333
Coalville,Summit,UT,91,40.9157806,-111.3976966
Corinne,Box Elder,UT,1200,41.5471553,-112.1096707
Cove Creek,Millard,UT,12,38.8013558,-112.4374387
Croydon,Morgan,UT,75,41.0685562,-111.5138141
Deseret,Millard,UT,6,39.286901,-112.652727
Diamond,Juab,UT,12,39.881617,-112.0974446
Draper,Salt Lake,UT,39,40.3577286,-111.8621554
Duncans Retreat,Washington,UT,9,37.183333,-113.133333
Echo City,Summit,UT,12,40.9777244,-111.443255
Eden,Weber,UT,12,41.2991077,-111.8221614
Emmaville,Salt Lake,UT,12,40.617222,-111.820278
Ephraim,Sanpete,UT,500,39.3621842,-111.5854718
Eureka,Juab,UT,12,39.9541166,-112.1202235
Fair View,Sanpete,UT,39,39.626351,-111.4396325
Fairfield,Utah,UT,14,40.2621714,-112.0929961
Farmington,Davis,UT,61,40.9776,-111.889
Fillmore City,Millard,UT,140,38.967778,-112.330833
Forest City,Utah,UT,12,40.527778,-111.602778
Fort Hamblin,Washington,UT,12,37.53644,-113.60591
Fountain Green,Sanpete,UT,61,39.6277376,-111.6346434
Franklin,Cache,UT,40,42.016111,-111.803056
Goshen,Utah,UT,12,39.9510643,-111.8996604
Grafton,Washington,UT,12,37.167205,-113.0799425
Grantsville,Tooele,UT,95,40.5999425,-112.4643988
Gunnison,Sanpete,UT,51,39.1388502,-111.8188137
Harrisburg,Washington,UT,28,37.2058153,-113.3943953
Harrisville,Weber,UT,12,41.2813324,-111.9882754
Heber,Wasatch,UT,19,40.5068991,-111.4132388
Hebron,Washington,UT,12,37.5766416,-113.8194151
Herriman,Salt Lake,UT,10,40.5141147,-112.0329938
Holden,Millard,UT,22,39.0988507,-112.2707709
Hooper,Weber,UT,12,41.1652213,-112.1232763
Huntsville,Weber,UT,26,41.2599412,-111.7702156
Hyde Park,Cache,UT,24,41.7993741,-111.8207775
Hyrum,Cache,UT,42,41.6338218,-111.8541097
Iron City,Iron,UT,12,37.6,-113.450278
Johnson,Kane,UT,12,37.0866512,-112.368809
Kamas,Summit,UT,12,40.6446736,-111.2818497
Kanab,Kane,UT,12,37.0063747,-112.528536
Kanarraville,Iron,UT,34,37.5388676,-113.1841166
Kanosh,Millard,UT,32,38.8013558,-112.4374387
Kaysville,Davis,UT,70,41.0357,-111.9356
Kelton,Box Elder,UT,240,41.7460327,-113.1063779
Lake Point,Tooele,UT,12,40.6807774,-112.2630024
Laketown,Utah,UT,12,,
Leeds,Washington,UT,12,37.2385932,-113.3591167
Lehi City,Utah,UT,73,40.3916172,-111.8507662
Levan,Juab,UT,12,39.5585686,-111.8618734
Liberty,Richland,UT,4,41.3425,-111.865
Logan,Cache,UT,290,41.7343751,-111.8346658
Lynne,Weber,UT,27,41.223,-111.9738304
Manti,Sanpete,UT,100,39.2674618,-111.6365849
Meadow,Millard,UT,4,38.8857984,-112.4104943
Mendon,Cache,UT,19,41.7099297,-111.977725
Midway,Wasatch,UT,15,40.5080107,-111.4696318
Mill Creek,Salt Lake,UT,12,40.6893914,-111.8585458
Millville,Cache,UT,22,41.6807653,-111.8241094
Minersville,Beaver,UT,38,38.2133029,-112.9252288
Mona,Juab,UT,18,39.8166213,-111.8502126
Monroe,Sevier,UT,12,38.6316391,-112.121313
Morgan,Morgan,UT,150,41.0388338,-111.6802103
Moroni,Sanpete,UT,92,39.5249616,-111.584639
Mount Pleasant,Salt Lake,UT,250,,
New Harmony,Washington,UT,13,37.4797021,-113.3080072
Newton,Cache,UT,12,41.8627046,-111.9907837
North Ogden,Weber,UT,34,41.3082756,-111.9657754
Ogden City,Weber,UT,1000,41.223,-111.9738304
Ophir,Tooele,UT,12,40.3693901,-112.2585566
Paradise,Cache,UT,17,41.5688234,-111.8379975
Paragonah,Iron,UT,39,37.8858079,-112.7752206
Parowan,Iron,UT,130,37.8410864,-112.8302218
Payson,Utah,UT,120,40.0430102,-111.7302071
Peoa,Summit,UT,12,40.7246718,-111.3418577
Petersburgh,Millard,UT,12,38.839,-112.457
Peterson,Morgan,UT,19,41.1179989,-111.7677146
Pine Valley,Washington,UT,17,37.3910907,-113.5141224
Pinto,Washington,UT,17,37.538311,-113.5166246
Plain City,Weber,UT,40,41.3021645,-112.0852205
Pleasant Grove,Utah,UT,78,40.3627295,-111.7382622
Portage,Box Elder,UT,13,41.9754794,-112.2071828
Providence,Cache,UT,38,41.7082648,-111.8179984
Provo City,Utah,UT,300,40.2338438,-111.6585337
Richfield,Sevier,UT,12,38.7702453,-112.0849276
Richmond,Cache,UT,29,41.9227055,-111.8257797
Riverdale,Weber,UT,31,41.1768888,-112.0038311
Rockville,Washington,UT,20,37.1610939,-113.0382745
Saint George,Washington,UT,440,37.1083142,-113.5824567
Salina,Sevier,UT,12,38.9577407,-111.858536
Salt Creek,Juab,UT,200,39.7102336,-111.8363216
Salt Lake City,Salt Lake,UT,3600,40.7607794,-111.8910474
Santaquin,Utah,UT,93,39.9760656,-111.7849329
Scipio,Millard,UT,58,39.24496,-112.1041015
Silver City,Juab,UT,12,39.9099498,-112.1299456
Slatersville,Weber,UT,12,41.2516113,-112.0254973
Smithfield,Cache,UT,43,41.8382622,-111.8327229
South Cottonwood,Salt Lake,UT,12,40.6525,-111.893333
Spanish Fork,Utah,UT,77,40.1127328,-111.6546452
Spring City,Sanpete,UT,130,39.4788519,-111.4963014
Springdale,Washington,UT,10,37.1891491,-112.9993848
Springville,Utah,UT,120,40.1619001,-111.6104748
Stockton,Tooele,UT,25,40.452722,-112.3607824
Stoker,Davis,UT,100,40.8877229,-111.8791043
Summit,Iron,UT,40,37.8010871,-112.9363354
Tokersville,Washington,UT,74,37.2533157,-113.2846707
Tooele,Tooele,UT,55,40.5318887,-112.2988357
Uintah,Weber,UT,12,41.1479994,-111.9202182
Union,Salt Lake,UT,44,40.6068923,-111.8743789
Virgin City,Washington,UT,37,37.208316,-113.1882792
Wales,Sanpete,UT,12,39.4869056,-111.6351961
Wallsburg,Wasatch,UT,12,40.3866228,-111.4204611
Wanship,Summit,UT,65,40.8118925,-111.4074184
Warrensburg,Iron,UT,12,,
Wasatch,Summit,UT,340,40.4968993,-111.4099049
Washington,Washington,UT,180,37.1299817,-113.5102312
Wellsville,Cache,UT,360,41.6390988,-111.9332786
West Jordan,Salt Lake,UT,10,40.602,-111.9586
Willard,Box Elder,UT,70,41.4085497,-112.0377224
Winsor,Kane,UT,12,37.247206,-112.664377
Woods Cross,Davis,UT,12,40.8778,-111.8992
Arkada,Mason,WA,3,43.376389,-124.237222
Attanum,Yakima,WA,12,46.5595702,-120.6220123
Beaver,Thurston,WA,12,46.89311008,-122.900695
Black River,King,WA,12,47.4857859,-122.2361838
Boisfort,Lewis,WA,11,46.5501034,-123.1329116
Bruceport,Pacific,WA,39,46.6792646,-123.9001649
Brush Prairie,Clark,WA,12,45.7305455,-122.5499913
Bucoda,Thurston,WA,12,46.7989899,-122.8698523
Carrollton,Cowlitz,WA,12,46.0715022,-122.8623306
Cascades,Skamania,WA,22,45.6684503,-121.8961911
Castle Rock,Cowlitz,WA,18,46.2751111,-122.9076141
Cathlamet,Wahkiakum,WA,12,46.2023053,-123.3848308
Cedarville,Grays Harbor,WA,6,46.8584317,-123.2823714
Centralia,Lewis,WA,10,46.7264911,-123.0020774
Chard,Garfield,WA,12,46.5379261,-117.8568769
Chehalis,Lewis,WA,12,46.6414928,-122.9415157
Chinook,Pacific,WA,12,46.2735,-123.9458081
Colville,Stevens,WA,130,48.5430724,-117.9046593
Coupeville,Island,WA,110,48.2200328,-122.6896162
Cowlitz,Lewis,WA,35,46.4739967,-122.4789987
Dayton,Columbia,WA,12,46.3173634,-117.9752146
Delta Mills,Walla Walla,WA,90,,
East Anacortes,Skagit,WA,12,48.4463103,-122.5826129
Elhi,Pierce,WA,12,,
Elma,Grays Harbor,WA,11,47.0053983,-123.4033701
Fort Simcoe,Yakima,WA,12,46.34266,-120.83691
Freeport,Cowlitz,WA,44,46.142733,-122.955636
Gleneden,Lewis,WA,12,,
Grand Mound,Thurston,WA,16,46.7951006,-123.045693
Hoquiam,Grays Harbor,WA,10,46.9746986,-123.8878281
Kachu,King,WA,12,,
Kalama,Cowlitz,WA,1,46.0084472,-122.8445509
Kittitass,Kittitas,WA,12,46.9831822,-120.4170102
Klikitat,Klickitat,WA,12,45.8170668,-121.1525716
Knappton,Pacific,WA,12,46.2764941,-123.8148675
Konewok,Yakima,WA,12,46.499329,-120.356723
Laconner,Skagit,WA,10,48.3887143,-122.4962752
Lowell,Snohomish,WA,12,47.9512711,-122.201867
Martins Bluff,Cowlitz,WA,12,45.9634475,-122.8114938
Moksee,Yakima,WA,12,46.556389,-120.387222
Montesano,Grays Harbor,WA,15,46.979366,-123.602302
Monticello,Cowlitz,WA,58,46.1390009,-122.9581677
Mukilteo,Snohomish,WA,20,47.9249055,-122.3010993
New Dungness,Clallam,WA,14,48.1467597,-123.1232335
O'Brien,King,WA,12,47.4123222,-122.2370657
Oak Point,Cowlitz,WA,67,46.1909435,-123.1887321
Oakland,Mason,WA,12,47.2303724,-123.0823732
Olympia,Thurston,WA,1300,47.0378741,-122.9006951
Oysterville,Pacific,WA,54,46.5489871,-124.0282197
Pekin,Cowlitz,WA,8,45.8747605,-122.7425283
Petersons Point,Grays Harbor,WA,15,46.9045339,-124.1332286
Port Angeles,Clallam,WA,76,48.1159425,-123.4272924
Port Blakely,Kitsap,WA,10,47.5973195,-122.5101324
Port Discovery,Jefferson,WA,16,48.0153682,-122.861836
Port Gamble,Kitsap,WA,140,47.8542606,-122.5837581
Port Ludlow,Jefferson,WA,69,47.9417578,-122.6876589
Port Madison,Kitsap,WA,97,47.7025967,-122.5243022
Port Orchard,Kitsap,WA,12,47.5335,-122.6285
Port Townsend,Jefferson,WA,740,48.1182363,-122.7677029
Pumphreys Landing,Cowlitz,WA,12,46.3701672,-122.9361533
Ridgefield,Clark,WA,17,45.8167674,-122.7462867
Riverside,Pacific,WA,12,48.505018,-119.509496
Rock Creek,Spokane,WA,12,48.68241,-117.5885833
Samish,Skagit,WA,12,48.586042,-122.2250627
Satsop,Grays Harbor,WA,57,47.0022804,-123.4833107
Seabeck,Kitsap,WA,57,47.6063524,-122.8446442
Seattle,King,WA,590,47.6062095,-122.3320708
Selah,Yakima,WA,12,46.6648486,-120.5295112
Sharon,Grays Harbor,WA,12,46.9292639,-123.3243196
Sherwood Mills,Mason,WA,12,47.386,-122.826
Skykomish,King,WA,12,47.709441,-121.3623863
Slaughter,King,WA,12,47.3073228,-122.2284532
Snohomish,Snohomish,WA,27,47.9282392,-122.0975105
Snoqualmie,King,WA,12,47.5219,-121.8198
Spokane Bridge,Spokane,WA,34,47.6943445,-117.0474218
Stanwood,Snohomish,WA,12,48.2427095,-122.3582239
Steilacoom,Pierce,WA,370,47.1722,-122.5988
Sumner,Pierce,WA,4,47.2031566,-122.2403966
Tanalquot,Thurston,WA,12,46.9103766,-122.713739
Tenino,Thurston,WA,6,46.8570441,-122.8495758
Tulalip,Snohomish,WA,14,48.0668067,-122.2821258
Tumwater,Thurston,WA,100,46.9920411,-122.9248621
Union Flat,Whitman,WA,1200,46.539167,-117.085278
Unity,Pacific,WA,16,46.3125,-124.029722
Utsaladdy,Island,WA,38,48.2517662,-122.4771042
Vancouver,Clark,WA,560,45.6406346,-122.6232842
Walla Walla,Walla Walla,WA,12,46.0645809,-118.3430209
Wallula,Walla Walla,WA,50,46.0854121,-118.9052776
Whatcom,Whatcom,WA,19,48.7590351,-122.4800865
White Salmon,Klickitat,WA,12,45.7398417,-121.4925729
Whitman,Walla Walla,WA,12,47.4284598,-120.3170164
Willapa,Pacific,WA,10,46.6759337,-123.6648815
Winlock,Lewis,WA,18,46.4901069,-122.8917856
Yakima,Yakima,WA,12,46.5573492,-120.4750638
Yelm,Thurston,WA,7,46.9514872,-122.6251259
Atlantic City,Fremont,WY,380,42.4966221,-108.7306677
Bitter Creek,Sweetwater,WY,12,41.551073,-108.5553837
Bridger Station,Uinta,WY,12,41.318611,-110.386389
Bryan,Sweetwater,WY,380,41.5705166,-109.6820852
Camp Stambaugh,Fremont,WY,12,42.503567,-108.680666
Carbon,Carbon,WY,86,41.8485752,-106.3769657
Carter,Uinta,WY,60,41.23967,-110.713227
Cheyenne,Laramie,WY,2800,41.1399814,-104.8202462
Evanston,Uinta,WY,630,41.2682794,-110.9632373
Fort Fred Steele,Carbon,WY,430,41.7780155,-106.9464303
Fort Halleck,Carbon,WY,12,41.698056,-106.515278
Fort Laramie,Goshen,WY,460,42.2127448,-104.5171788
Gilmer,Uinta,WY,300,41.173033,-110.870161
Laramie,Albany,WY,1800,41.3113669,-105.5911007
Medicine Bow,Carbon,WY,12,41.8955212,-106.2047385
Miners Delight,Fremont,WY,12,42.5310675,-108.6878891
Percy,Carbon,WY,12,41.798574,-106.5097469
Piedmont,Uinta,WY,12,41.2160592,-110.6273902
Rawlins,Carbon,WY,950,41.7910697,-107.2386627
Sherman,Albany,WY,190,41.0977612,-105.3508181
South Pass City,Fremont,WY,430,42.4682883,-108.799836